[{"name": "湖北省", "lat": "31.209316", "lng": "112.410562", "confirmed": 67801, "current": 2895}, {"name": "香港", "lat": "22.293586", "lng": "114.186124", "confirmed": 519, "current": 405}, {"name": "台湾", "lat": "23.80406", "lng": "120.961454", "confirmed": 267, "current": 236}, {"name": "北京市", "lat": "39.929986", "lng": "116.395645", "confirmed": 569, "current": 153}, {"name": "上海市", "lat": "31.249162", "lng": "121.487899", "confirmed": 468, "current": 129}, {"name": "广东省", "lat": "23.408004", "lng": "113.394818", "confirmed": 1456, "current": 111}, {"name": "福建省", "lat": "26.050118", "lng": "117.984943", "confirmed": 331, "current": 35}, {"name": "浙江省", "lat": "29.159494", "lng": "119.957202", "confirmed": 1247, "current": 24}, {"name": "澳门", "lat": "22.204118", "lng": "113.557519", "confirmed": 33, "current": 23}, {"name": "天津市", "lat": "39.14393", "lng": "117.210813", "confirmed": 155, "current": 19}, {"name": "内蒙古自治区", "lat": "43.468238", "lng": "114.415868", "confirmed": 92, "current": 17}, {"name": "山东省", "lat": "36.09929", "lng": "118.527663", "confirmed": 772, "current": 13}, {"name": "甘肃省", "lat": "38.103267", "lng": "102.457625", "confirmed": 136, "current": 11}, {"name": "江苏省", "lat": "33.013797", "lng": "119.368489", "confirmed": 641, "current": 10}, {"name": "四川省", "lat": "30.367481", "lng": "102.89916", "confirmed": 548, "current": 9}, {"name": "陕西省", "lat": "35.860026", "lng": "109.503789", "confirmed": 253, "current": 8}, {"name": "云南省", "lat": "24.864213", "lng": "101.592952", "confirmed": 180, "current": 6}, {"name": "河南省", "lat": "34.157184", "lng": "113.486804", "confirmed": 1275, "current": 3}, {"name": "河北省", "lat": "38.61384", "lng": "115.661434", "confirmed": 319, "current": 3}, {"name": "重庆市", "lat": "29.544606", "lng": "106.530635", "confirmed": 578, "current": 2}, {"name": "黑龙江省", "lat": "47.356592", "lng": "128.047414", "confirmed": 484, "current": 2}, {"name": "广西壮族自治区", "lat": "23.552255", "lng": "108.924274", "confirmed": 254, "current": 2}, {"name": "山西省", "lat": "37.866566", "lng": "112.515496", "confirmed": 135, "current": 2}, {"name": "辽宁省", "lat": "41.6216", "lng": "122.753592", "confirmed": 128, "current": 2}, {"name": "吉林省", "lat": "43.678846", "lng": "126.262876", "confirmed": 95, "current": 2}, {"name": "江西省", "lat": "27.757258", "lng": "115.676082", "confirmed": 936, "current": 1}, {"name": "湖南省", "lat": "27.695864", "lng": "111.720664", "confirmed": 1018, "current": 0}, {"name": "安徽省", "lat": "31.859252", "lng": "117.216005", "confirmed": 990, "current": 0}, {"name": "海南省", "lat": "19.180501", "lng": "109.733755", "confirmed": 168, "current": 0}, {"name": "贵州省", "lat": "26.902826", "lng": "106.734996", "confirmed": 146, "current": 0}, {"name": "新疆维吾尔自治区", "lat": "42.127001", "lng": "85.614899", "confirmed": 76, "current": 0}, {"name": "宁夏回族自治区", "lat": "37.321323", "lng": "106.155481", "confirmed": 75, "current": 0}, {"name": "青海省", "lat": "35.499761", "lng": "96.202544", "confirmed": 18, "current": 0}, {"name": "西藏自治区", "lat": "31.367315", "lng": "89.137982", "confirmed": 1, "current": 0}]